{
  "type": "FeatureCollection",
  "name": "georss",
  "crs": {
    "type": "name",
    "properties": {
      "name": "urn:ogc:def:crs:OGC:1.3:CRS84"
    }
  },
  "features": [
    {
      "type": "Feature",
      "properties": {
        "title": "Gauštvinio ežeras",
        "description": "eimos abecele",
        "link": ""
      },
      "geometry": {
        "type": "Point",
        "coordinates": [23.152002, 55.663232]
      }
    },
    {
      "type": "Feature",
      "properties": {
        "title": "Kaunas",
        "description": "Kaunas > Vilnius",
        "link": ""
      },
      "geometry": {
        "type": "Point",
        "coordinates": [23.927915, 54.906333]
      }
    },
    {
      "type": "Feature",
      "properties": {
        "title": "Pas vedecki latvijoj",
        "description": "slova pacana",
        "link": ""
      },
      "geometry": {
        "type": "Point",
        "coordinates": [24.154111, 56.959003]
      }
    },
    {
      "type": "Feature",
      "properties": {
        "title": "Birzai, Sirvenos ez.",
        "description": "planas B / jokūbas joins the gang",
        "link": ""
      },
      "geometry": {
        "type": "Point",
        "coordinates": [24.763361, 56.22225]
      }
    },
    {
      "type": "Feature",
      "properties": {
        "title": "Moletai",
        "description": "Kurva sumastom kazka, keturi esam",
        "link": ""
      },
      "geometry": {
        "type": "Point",
        "coordinates": [25.530651, 55.062254]
      }
    },
    {
      "type": "Feature",
      "properties": {
        "title": "Split",
        "description": "Tą vieną vakarą, kai klaunai gavo (juoko) dujų",
        "link": ""
      },
      "geometry": {
        "type": "Point",
        "coordinates": [16.401008, 43.513421]
      }
    },
    {
      "type": "Feature",
      "properties": {
        "title": "Riga",
        "description": "HUTA arba ta naktis, kai Koste nebemokejo kalbet",
        "link": ""
      },
      "geometry": {
        "type": "Point",
        "coordinates": [24.111510, 56.946575]
      }
    },
    {
      "type": "Feature",
      "properties": {
        "title": "Siauliai",
        "description": "tai uzdaryk mane teveli pirtyje",
        "link": ""
      },
      "geometry": {
        "type": "Point",
        "coordinates": [23.282891, 55.953898]
      }
    },
    {
      "type": "Feature",
      "properties": {
        "title": "Nida",
        "description": "pyzda, koks smailus vanduo buva",
        "link": ""
      },
      "geometry": {
        "type": "Point",
        "coordinates": [20.991755, 55.314172]
      }
    }
  ]
}
