{
   "type": "FeatureCollection",
   "name": "georss",
   "crs": {
     "type": "name",
     "properties": {
       "name": "urn:ogc:def:crs:OGC:1.3:CRS84"
     }
   },
   "features": [
     {
       "type": "Feature",
       "properties": {
         "title": "Gaustvinio ez",
         "description": "eimos abecele",
         "link": "https://geoguessr-8509.s3.us-east-1.amazonaws.com/4094427d-d073-4e25-bac4-8aa00cd0c7e6.jpg"
       },
       "geometry": {
         "type": "Point",
         "coordinates": [
           23.152002,
           55.663232
         ]
       }
     },
     {
      "type": "Feature",
      "properties": {
        "title": "Pas vedecki latvijoj",
        "description": "slova pacana",
        "link": "https://geoguessr-8509.s3.us-east-1.amazonaws.com/f5380f8c-2bdf-42d6-b78a-7850b0c5ee72.jpg"
      },
      "geometry": {
        "type": "Point",
        "coordinates": [
          24.154111,
          56.959003
        ]
      }
    },
     {
       "type": "Feature",
       "properties": {
         "title": "Kaunas",
         "description": "Kaunas  Vilnius",
         "link": "https://geoguessr-8509.s3.us-east-1.amazonaws.com/87984c6e-3c52-4130-b0fa-c5258bfe9d1b.jpg"
       },
       "geometry": {
         "type": "Point",
         "coordinates": [
           23.927915,
           54.906333
         ]
       }
     },
     {
       "type": "Feature",
       "properties": {
         "title": "Pas vedecki latvijoj",
         "description": "slova pacana",
         "link": "https://geoguessr-8509.s3.us-east-1.amazonaws.com/f5380f8c-2bdf-42d6-b78a-7850b0c5ee72.jpg"
       },
       "geometry": {
         "type": "Point",
         "coordinates": [
           24.154111,
           56.959003
         ]
       }
     },
     {
       "type": "Feature",
       "properties": {
         "title": "Birzai, Sirvenos ez.",
         "description": "planas B  jokbas joins the gang",
         "link": "https://geoguessr-8509.s3.us-east-1.amazonaws.com/9b1516b7-9da6-4a7d-96b4-8f58686f65af.jpg"
       },
       "geometry": {
         "type": "Point",
         "coordinates": [
           24.763361,
           56.22225
         ]
       }
     },
     {
       "type": "Feature",
       "properties": {
         "title": "Moletai",
         "description": "Kurva sumastom kazka, keturi esam",
         "link": "https://geoguessr-8509.s3.us-east-1.amazonaws.com/570cdb07-d718-4eb3-863c-83363352251b.jpg"
       },
       "geometry": {
         "type": "Point",
         "coordinates": [
           25.530651,
           55.062254
         ]
       }
     },
     {
       "type": "Feature",
       "properties": {
         "title": "Split",
         "description": "Ta viena vakara, kai klaunai gavo (juoko) duju",
         "link": "https://geoguessr-8509.s3.us-east-1.amazonaws.com/0a515996-41b7-4c0f-ab26-38296d9e0385.jpg"
       },
       "geometry": {
         "type": "Point",
         "coordinates": [
           16.401008,
           43.513421
         ]
       }
     },
     {
       "type": "Feature",
       "properties": {
         "title": "Riga",
         "description": "HUTA arba ta naktis, kai Koste nebemokejo kalbet",
         "link": "https://geoguessr-8509.s3.us-east-1.amazonaws.com/e23ff84c-c90b-47a2-92f4-e0900c3455dd.jpg"
       },
       "geometry": {
         "type": "Point",
         "coordinates": [
           24.11151,
           56.946575
         ]
       }
     },
     {
       "type": "Feature",
       "properties": {
         "title": "Siauliai",
         "description": "tai uzdaryk mane teveli pirtyje",
         "link": "https://geoguessr-8509.s3.us-east-1.amazonaws.com/b940cbe5-a382-421b-86e4-caf537b5debe.jpg"
       },
       "geometry": {
         "type": "Point",
         "coordinates": [
           23.282891,
           55.953898
         ]
       }
     },
     {
       "type": "Feature",
       "properties": {
         "title": "Nida",
         "description": "pyzda, koks smailus vanduo buva",
         "link": "https://geoguessr-8509.s3.us-east-1.amazonaws.com/5ba5d1ba-f8a3-436a-8077-6814cfd7137d.jpg"
       },
       "geometry": {
         "type": "Point",
         "coordinates": [
           20.991755,
           55.314172
         ]
       }
     },
     {
      "type": "Feature",
      "properties": {
        "title": "Saloviskes",
        "description": "naktis kai fizine branda pasieke zmones zaide slepyniu stuku stuku",
        "link": "https://geoguessr-8509.s3.us-east-1.amazonaws.com/ae4ab4af-39f8-4a0d-bed3-cce75bc68a79.jpg"
      },
      "geometry": {
        "type": "Point",
        "coordinates": [
          24.706044,
          54.529806
        ]
      }
    },
    {
      "type": "Feature",
      "properties": {
        "title": "Vilnius",
        "description": "ganetinai homoseksualiai koncerte praleistas laikas su vyruciais",
        "link": "https://geoguessr-8509.s3.us-east-1.amazonaws.com/d6f29cc8-c09c-412d-a6e3-77832efa60f0.jpg"
      },
      "geometry": {
        "type": "Point",
        "coordinates": [
          25.249873,
          54.681843
        ]
      }
    },
    {
      "type": "Feature",
      "properties": {
        "title": "Plateliu ez.",
        "description": "tas vakaras, kai Familija laimėjo euroviziją arba lygiai prieš metus kaip Koste gimtadienį šventė",
        "link": "https://geoguessr-8509.s3.us-east-1.amazonaws.com/6c5500d4-8920-4fd7-b196-c91349eb5342.jpg"
      },
      "geometry": {
        "type": "Point",
        "coordinates": [
          21.883951,
          56.048380
        ]
      }
    },
    {
      "type": "Feature",
      "properties": {
        "title": "Palanga",
        "description": "Kaip Ugnytė gimtadienį šventė, o draugai ieškojo šlykščiausio pasauly kokteilio recepto",
        "link": "https://geoguessr-8509.s3.us-east-1.amazonaws.com/d0df4837-5835-4696-b84a-e7b18f86951c.jpg"
      },
      "geometry": {
        "type": "Point",
        "coordinates": [
          21.071112,
          55.921244
        ]
      }
    },
    {
      "type": "Feature",
      "properties": {
        "title": "Riga, Arcada",
        "description": "pisam i arcada",
        "link": "https://geoguessr-8509.s3.us-east-1.amazonaws.com/fotkes/arcada.jpeg"
      },
      "geometry": {
        "type": "Point",
        "coordinates": [
          24.110387200226192,
          56.94604957355298
        ]
      }
    },
    {
      "type": "Feature",
      "properties": {
        "title": "Nida",
        "description": "cia zvejojom ane",
        "link": "https://geoguessr-8509.s3.us-east-1.amazonaws.com/fotkes/fishing.jpeg"
      },
      "geometry": {
        "type": "Point",
        "coordinates": [
          21.007768130746122,
          55.30342641548297
        ]
      }
    },
    {
      "type": "Feature",
      "properties": {
        "title": "Geruliai",
        "description": "kai geruliai",
        "link": "https://geoguessr-8509.s3.us-east-1.amazonaws.com/fotkes/geruliai+3.jpeg"
      },
      "geometry": {
        "type": "Point",
        "coordinates": [
          22.392464399750292,
          55.97803183286685
        ]
      }
    },
    {
      "type": "Feature",
      "properties": {
        "title": "Lietuvos Etnografijos muziejus",
        "description": "gronkes",
        "link": "https://geoguessr-8509.s3.us-east-1.amazonaws.com/fotkes/gronkes.jpeg"
      },
      "geometry": {
        "type": "Point",
        "coordinates": [
          24.201140627040857,
          54.86640547277327
        ]
      }
    },
    {
      "type": "Feature",
      "properties": {
        "title": "Juliaus Janonio gimnazija, Siauliai",
        "description": "pize cia :DDDDDDDDDDDD",
        "link": "https://geoguessr-8509.s3.us-east-1.amazonaws.com/fotkes/juliaus+janonio+gimnazija.jpeg"
      },
      "geometry": {
        "type": "Point",
        "coordinates": [
          23.313097054113523,
          55.93053599103983
        ]
      }
    },
    {
      "type": "Feature",
      "properties": {
        "title": "Kaunas",
        "description": "Valge",
        "link": "https://geoguessr-8509.s3.us-east-1.amazonaws.com/fotkes/kaunas.jpeg"
      },
      "geometry": {
        "type": "Point",
        "coordinates": [
          23.894678082681317,
          54.91134724830113
        ]
      }
    },
    {
      "type": "Feature",
      "properties": {
        "title": "Kaunas",
        "description": "Valge",
        "link": "https://geoguessr-8509.s3.us-east-1.amazonaws.com/fotkes/kaunas.jpeg"
      },
      "geometry": {
        "type": "Point",
        "coordinates": [
          23.894678082681317,
          54.91134724830113
        ]
      }
    },
    {
      "type": "Feature",
      "properties": {
        "title": "Uzventis",
        "description": "kebabiste prasuka viena, nes arbatos nepaliko",
        "link": "https://geoguessr-8509.s3.us-east-1.amazonaws.com/fotkes/kebabiste+prasuka+is+kojos+viena+uzventis.jpeg"
      },
      "geometry": {
        "type": "Point",
        "coordinates": [
          22.653032811772757,
          55.782433040224014
        ]
      }
    },
    {
      "type": "Feature",
      "properties": {
        "title": "Nida",
        "description": "kelnes pameciau",
        "link": "https://geoguessr-8509.s3.us-east-1.amazonaws.com/fotkes/kelnes+pameciau.jpg"
      },
      "geometry": {
        "type": "Point",
        "coordinates": [
          21.003368726384142,
          55.30668717172262
        ]
      }
    },
    {
      "type": "Feature",
      "properties": {
        "title": "Nida, Kupolas",
        "description": "nebuva gerai",
        "link": "https://geoguessr-8509.s3.us-east-1.amazonaws.com/fotkes/kupolas.jpg"
      },
      "geometry": {
        "type": "Point",
        "coordinates": [
          20.99228,
          55.32454
        ]
      }
    },
    {
      "type": "Feature",
      "properties": {
        "title": "Palanga, Tiltas",
        "description": "Opa",
        "link": "https://geoguessr-8509.s3.us-east-1.amazonaws.com/palanga+tiltas.jpeg"
      },
      "geometry": {
        "type": "Point",
        "coordinates": [
          21.044414043827043,
          55.92122864996142
        ]
      }
    },
    {
      "type": "Feature",
      "properties": {
        "title": "Tytuvenai",
        "description": "eimanto puota su ginu",
        "link": "https://geoguessr-8509.s3.us-east-1.amazonaws.com/e368f8b9-f4d6-48fc-bdd4-5c6211cbfd18.jpg"
      },
      "geometry": {
        "type": "Point",
        "coordinates": [
          23.189767683160014,
          55.617908311893075
        ]
      }
    },
    {
      "type": "Feature",
      "properties": {
        "title": "Paplatele",
        "description": "kazkoks balaganas, kur vyko per kostes gimtadieni",
        "link": "https://geoguessr-8509.s3.us-east-1.amazonaws.com/panara.jpeg"
      },
      "geometry": {
        "type": "Point",
        "coordinates": [
          21.873118366309466,
          56.031113729343275
        ]
      }
    },
    {
      "type": "Feature",
      "properties": {
        "title": "Riga",
        "description": "eimos barzda buvo pradaryta",
        "link": "https://geoguessr-8509.s3.us-east-1.amazonaws.com/fotkes/eima+prasidare+barzda.jpeg"
      },
      "geometry": {
        "type": "Point",
        "coordinates": [
          24.107974079742135,
          56.947938462129564
        ]
      }
    },
    {
      "type": "Feature",
      "properties": {
        "title": "Vilnius",
        "description": "pasilaizem",
        "link": "https://geoguessr-8509.s3.us-east-1.amazonaws.com/romantiska+naktis.jpeg"
      },
      "geometry": {
        "type": "Point",
        "coordinates": [
          25.152094423050723,
          54.75493447955052
        ]
      }
    },
    {
      "type": "Feature",
      "properties": {
        "title": "Paplatele",
        "description": "kazkoks balaganas, kur vyko per kostes gimtadieni",
        "link": "https://geoguessr-8509.s3.us-east-1.amazonaws.com/panara.jpeg"
      },
      "geometry": {
        "type": "Point",
        "coordinates": [
          21.873118366309466,
          56.031113729343275
        ]
      }
    },
    {
      "type": "Feature",
      "properties": {
        "title": "Moletai",
        "description": "pirtelei",
        "link": "https://geoguessr-8509.s3.us-east-1.amazonaws.com/pirtis+moletuose.png"
      },
      "geometry": {
        "type": "Point",
        "coordinates": [
          25.40785366129931,
          55.19525316728727
        ]
      }
    },
    {
      "type": "Feature",
      "properties": {
        "title": "Nida, Kupolas",
        "description": "nebuva gerai",
        "link": "https://geoguessr-8509.s3.us-east-1.amazonaws.com/fotkes/kupolas.jpg"
      },
      "geometry": {
        "type": "Point",
        "coordinates": [
          20.99228,
          55.32454
        ]
      }
    },
    {
      "type": "Feature",
      "properties": {
        "title": "Riga, Centrs",
        "description": "konkretus baudimas",
        "link": "https://geoguessr-8509.s3.us-east-1.amazonaws.com/Riga+baudimas.jpeg"
      },
      "geometry": {
        "type": "Point",
        "coordinates": [
          24.07099109037275,
          56.968125064503106
        ]
      }
    },
    {
      "type": "Feature",
      "properties": {
        "title": "Siauliai, RocknRoll",
        "description": "rokenrol",
        "link": "https://geoguessr-8509.s3.us-east-1.amazonaws.com/rocknroll+siauliai.jpeg"
      },
      "geometry": {
        "type": "Point",
        "coordinates": [
          23.317336835070474,
          55.930114321498635
        ]
      }
    },
    {
      "type": "Feature",
      "properties": {
        "title": "Vilnius, Swedbank",
        "description": "muziejui",
        "link": "https://geoguessr-8509.s3.us-east-1.amazonaws.com/vilnius+swedbank.jpeg"
      },
      "geometry": {
        "type": "Point",
        "coordinates": [
          25.27359292147693,
          54.69593217307732
        ]
      }
    },
    {
      "type": "Feature",
      "properties": {
        "title": "Nida, Kupolas",
        "description": "nebuva gerai",
        "link": "https://geoguessr-8509.s3.us-east-1.amazonaws.com/fotkes/kupolas.jpg"
      },
      "geometry": {
        "type": "Point",
        "coordinates": [
          20.99228,
          55.32454
        ]
      }
    },
    {
      "type": "Feature",
      "properties": {
        "title": "Vilnius",
        "description": "pasilaizem",
        "link": "https://geoguessr-8509.s3.us-east-1.amazonaws.com/romantiska+naktis.jpeg"
      },
      "geometry": {
        "type": "Point",
        "coordinates": [
          25.152094423050723,
          54.75493447955052
        ]
      }
    },
    {
      "type": "Feature",
      "properties": {
        "title": "Siauliai, Happy Mosquito",
        "description": "sad mosquito, eimos neileida",
        "link": "https://geoguessr-8509.s3.us-east-1.amazonaws.com/sad+mosquito.jpeg"
      },
      "geometry": {
        "type": "Point",
        "coordinates": [
          23.317558235070514,
          55.93002871109059
        ]
      }
    },
    {
      "type": "Feature",
      "properties": {
        "title": "Sventoji",
        "description": "ble wtf",
        "link": "https://geoguessr-8509.s3.us-east-1.amazonaws.com/sventoji.jpeg"
      },
      "geometry": {
        "type": "Point",
        "coordinates": [
          21.081090012136478,
          56.02967266091667
        ]
      }
    },
    {
      "type": "Feature",
      "properties": {
        "title": "Trakai",
        "description": "trakai buvo apversti aukstyn kojom",
        "link": "https://geoguessr-8509.s3.us-east-1.amazonaws.com/trakai+aukstyn+kojom.jpeg"
      },
      "geometry": {
        "type": "Point",
        "coordinates": [
          24.93417539353721,
          54.633788061959606
        ]
      }
    },
    {
      "type": "Feature",
      "properties": {
        "title": "Vilnius, Swedbank",
        "description": "muziejui",
        "link": "https://geoguessr-8509.s3.us-east-1.amazonaws.com/vilnius+swedbank.jpeg"
      },
      "geometry": {
        "type": "Point",
        "coordinates": [
          25.27359292147693,
          54.69593217307732
        ]
      }
    }
   ]
 }