{
  "type": "FeatureCollection",
  "name": "georss",
  "crs": {
    "type": "name",
    "properties": {
      "name": "urn:ogc:def:crs:OGC:1.3:CRS84"
    }
  },
  "features": [
    {
      "type": "Feature",
      "properties": {
        "title": "Siauliai",
        "description": "The abbey, together with its monumental entrance, the famous 'Torhall', are rare architectural vestiges of the Carolingian era. The sculptures and paintings from this period are still in remarkably good condition.",
        "link": "https://whc.unesco.org/en/list/515"
      },
      "geometry": {
        "type": "Point",
        "coordinates": [23.349530439568596, 55.81514049395521]
      }
    },
    {
      "type": "Feature",
      "properties": {
        "title": "Abbey Church of Saint-Savin sur Gartempe",
        "description": "Known as the 'Romanesque Sistine Chapel', the Abbey-Church of Saint-Savin contains many beautiful 11th- and 12th-century murals which are still in a remarkable state of preservation.",
        "link": "https://whc.unesco.org/en/list/230"
      },
      "geometry": {
        "type": "Point",
        "coordinates": [24.095338074697114, 54.89657898225501]
      }
    },
    {
      "type": "Feature",
      "properties": {
        "title": "Klaipeda",
        "description": "The Convent of St Gall, a perfect example of a great Carolingian monastery, was, from the 8th century to its secularization in 1805, one of the most important in Europe.",
        "link": "https://whc.unesco.org/en/list/268"
      },
      "geometry": {
        "type": "Point",
        "coordinates": [21.18674663003297, 55.75111637036435]
      }
    },
    {
      "type": "Feature",
      "properties": {
        "title": "Abu Mena",
        "description": "The church, baptistry, basilicas, public buildings, streets, monasteries, houses and workshops in this early Christian holy city were built over the tomb of the martyr Menas of Alexandria.",
        "link": "https://whc.unesco.org/en/list/90"
      },
      "geometry": {
        "type": "Point",
        "coordinates": [21.34052693736373, 55.518270338429424]
      }
    },
    {
      "type": "Feature",
      "properties": {
        "title": "Acropolis, Athens",
        "description": "The Acropolis of Athens and its monuments are universal symbols of the classical spirit and civilization.",
        "link": "https://whc.unesco.org/en/list/404"
      },
      "geometry": {
        "type": "Point",
        "coordinates": [22.79308953479201, 55.32398839232425]
      }
    },
    {
      "type": "Feature",
      "properties": {
        "title": "Agave Landscape and Ancient Industrial Facilities of Tequila",
        "description": "The 34,658 ha site is part of an expansive landscape of blue agave.",
        "link": "https://whc.unesco.org/en/list/1209"
      },
      "geometry": {
        "type": "Point",
        "coordinates": [22.432261883201544, 55.929897109876315]
      }
    },
    {
      "type": "Feature",
      "properties": {
        "title": "Agra Fort",
        "description": "Near the gardens of the Taj Mahal stands the important 16th-century Mughal monument known as the Red Fort of Agra.",
        "link": "https://whc.unesco.org/en/list/251"
      },
      "geometry": {
        "type": "Point",
        "coordinates": [24.106872363018887, 55.29766073334675]
      }
    },
    {
      "type": "Feature",
      "properties": {
        "title": "Agricultural Landscape of Southern Öland",
        "description": "The southern part of the island of Öland in the Baltic Sea is dominated by a vast limestone plateau.",
        "link": "https://whc.unesco.org/en/list/968"
      },
      "geometry": {
        "type": "Point",
        "coordinates": [25.0320714696611, 55.24495296555919]
      }
    }
  ]
}
