{
  "type": "FeatureCollection",
  "name": "georss",
  "crs": {
    "type": "name",
    "properties": {
      "name": "urn:ogc:def:crs:OGC:1.3:CRS84"
    }
  },
  "features": [
    {
      "type": "Feature",
      "properties": {
        "title": "Gaustvinio ez",
        "description": "eimos abecele",
        "link": "https://geoguessr-8509.s3.us-east-1.amazonaws.com/4094427d-d073-4e25-bac4-8aa00cd0c7e6.jpg"
      },
      "geometry": {
        "type": "Point",
        "coordinates": [
          23.152002,
          55.663232
        ]
      }
    },
    {
      "type": "Feature",
      "properties": {
        "title": "Kaunas",
        "description": "Kaunas  Vilnius",
        "link": "https://geoguessr-8509.s3.us-east-1.amazonaws.com/87984c6e-3c52-4130-b0fa-c5258bfe9d1b.jpg"
      },
      "geometry": {
        "type": "Point",
        "coordinates": [
          23.927915,
          54.906333
        ]
      }
    },
    {
      "type": "Feature",
      "properties": {
        "title": "Pas vedecki latvijoj",
        "description": "slova pacana",
        "link": "https://geoguessr-8509.s3.us-east-1.amazonaws.com/f5380f8c-2bdf-42d6-b78a-7850b0c5ee72.jpg"
      },
      "geometry": {
        "type": "Point",
        "coordinates": [
          24.154111,
          56.959003
        ]
      }
    },
    {
      "type": "Feature",
      "properties": {
        "title": "Birzai, Sirvenos ez.",
        "description": "planas B  jokbas joins the gang",
        "link": "https://geoguessr-8509.s3.us-east-1.amazonaws.com/9b1516b7-9da6-4a7d-96b4-8f58686f65af.jpg"
      },
      "geometry": {
        "type": "Point",
        "coordinates": [
          24.763361,
          56.22225
        ]
      }
    },
    {
      "type": "Feature",
      "properties": {
        "title": "Moletai",
        "description": "Kurva sumastom kazka, keturi esam",
        "link": "https://geoguessr-8509.s3.us-east-1.amazonaws.com/570cdb07-d718-4eb3-863c-83363352251b.jpg"
      },
      "geometry": {
        "type": "Point",
        "coordinates": [
          25.530651,
          55.062254
        ]
      }
    }
  ]
}